{"_id":{"$oid":"5de54c468b13c302e8e40fd1"},"name":"Green-Hudson Garage","address":"45 Hudson Ave, Albany, NY 12207","lat":{"$numberDouble":"42.6479"},"lng":{"$numberDouble":"-73.75238889"},"unitPrice":{"$numberInt":"3"},"capacity":{"$numberInt":"900"},"section":["A","B","C","D"],"spot":{"$numberInt":"225"},"ownerName":"","Rate":{"$numberDouble":"4.2"},"city":"Albany"}
{"_id":{"$oid":"5de555528b13c302e8e40fd6"},"name":"Riverfront Garage","address":"2 Columbia St, Albany, NY 12207","lat":{"$numberDouble":"42.6513472"},"lng":{"$numberDouble":"-73.74881667"},"unitPrice":{"$numberInt":"4"},"capacity":{"$numberInt":"850"},"Section":["A","B","C","D","E"],"spot":{"$numberInt":"170"},"ownerName":"","Rate":{"$numberInt":"4"},"city":"Albany"}
{"_id":{"$oid":"5de55a048b13c302e8e40fd7"},"name":"Quackenbush Garage","address":"25 Orange St, Albany, NY 12207","lat":{"$numberDouble":"42.736532194"},"lng":{"$numberDouble":"-73.74799444"},"unitPrice":{"$numberDouble":"3.5"},"capacity":{"$numberInt":"900"},"section":["A","B","C","D","E"],"spot":{"$numberInt":"180"},"ownerName":"","Rate":{"$numberDouble":"3.5"},"city":"Albany"}
{"_id":{"$oid":"5de54c468b13c302e8e40fd3"},"name":"Ludlow Garage","address":"151 Attorney St, New York, NY 10002","lat":{"$numberDouble":"40.72039"},"lng":{"$numberDouble":"-73.98355"},"unitPrice":{"$numberDouble":"3.5"},"capacity":{"$numberInt":"900"},"section":["A","B","C","D"],"spot":{"$numberInt":"225"},"ownerName":"","Rate":{"$numberDouble":"4.2"},"city":"New York"}
{"_id":{"$oid":"5de555528b13c302e8e40fd2"},"name":"The 1345 Garage","address":"1345 6th Ave, New York, NY 10105","lat":{"$numberDouble":"40.761799"},"lng":{"$numberDouble":"-73.97908"},"unitPrice":{"$numberDouble":"4.2"},"capacity":{"$numberInt":"850"},"Section":["A","B","C","D","E"],"spot":{"$numberInt":"170"},"ownerName":"","Rate":{"$numberInt":"4"},"city":"New York"}
{"_id":{"$oid":"5de55a048b13c302e8e40fd8"},"name":"GMC Parking","address":"532 W 122nd St, New York, NY 10027","lat":{"$numberDouble":"40.81134"},"lng":{"$numberDouble":"-73.96055"},"unitPrice":{"$numberDouble":"3.5"},"capacity":{"$numberInt":"900"},"section":["A","B","C","D","E"],"spot":{"$numberInt":"180"},"ownerName":"","Rate":{"$numberDouble":"3.5"},"city":"New York"}
